=~=~=~=~=~=~=~=~=~=~=~= PuTTY log 2020.06.17 18:59:33 =~=~=~=~=~=~=~=~=~=~=~=

$GPGSV,4,2,13,08,01,162,,11,31,141,31,14,32,053,21,17,45,297,30*7C
$GPGSV,4,3,13,19,27,313,23,22,72,075,29,28,15,255,13,31,09,083,*73
$GPGSV,4,4,13,32,15,039,20*46
$GPGLL,5154.93885,N,00204.21843,W,175934.00,A,A*76
$GPRMC,175935.00,A,5154.93886,N,00204.21847,W,0.192,,170620,,,A*61
$GPVTG,,T,,M,0.192,N,0.356,K,A*29
$GPGGA,175935.00,5154.93886,N,00204.21847,W,1,09,0.98,81.3,M,48.0,M,,*7B
$GPGSA,A,3,22,03,01,17,11,14,19,32,28,,,,1.63,0.98,1.31*06
$GPGSV,4,1,13,01,62,109,17,03,82,232,26,04,23,176,08,06,01,292,*78
$GPGSV,4,2,13,08,00,162,,11,31,141,31,14,32,053,21,17,45,297,30*7D
$GPGSV,4,3,13,19,27,313,24,22,72,075,29,28,15,255,13,31,09,083,*74
$GPGSV,4,4,13,32,15,039,20*46
$GPGLL,5154.93886,N,00204.21847,W,175935.00,A,A*70
$GPRMC,175936.00,A,5154.93886,N,00204.21831,W,0.162,,170620,,,A*6C
$GPVTG,,T,,M,0.162,N,0.299,K,A*24
$GPGGA,175936.00,5154.93886,N,00204.21831,W,1,09,0.98,81.8,M,48.0,M,,*72
$GPGSA,A,3,22,03,01,17,11,14,19,32,28,,,,1.63,0.98,1.31*06
$GPGSV,4,1,13,01,62,109,18,03,82,232,25,04,23,176,12,06,01,292,*7F
$GPGSV,4,2,13,08,00,162,,11,31,141,31,14,32,053,21,17,45,297,30*7D
$GPGSV,4,3,13,19,27,313,24,22,72,075,30,28,15,255,15,31,09,083,*7A
$GPGSV,4,4,13,32,15,039,21*47
$GPGLL,5154.93886,N,00204.21831,W,175936.00,A,A*72
$GPRMC,175937.00,A,5154.93882,N,00204.21837,W,0.117,,170620,,,A*6D
$GPVTG,,T,,M,0.117,N,0.216,K,A*21
$GPGGA,175937.00,5154.93882,N,00204.21837,W,1,09,1.24,81.7,M,48.0,M,,*78
$GPGSA,A,3,22,03,01,17,11,14,19,32,28,,,,2.19,1.24,1.80*04
$GPGSV,4,1,13,01,62,109,18,03,82,232,24,04,23,176,12,06,01,292,*7E
$GPGSV,4,2,13,08,00,162,,11,31,141,31,14,32,053,20,17,45,297,30*7C
$GPGSV,4,3,13,19,27,313,23,22,72,075,29,28,15,255,14,31,09,083,*74
$GPGSV,4,4,13,32,15,039,20*46
$GPGLL,5154.93882,N,00204.21837,W,175937.00,A,A*71
$GPRMC,175938.00,A,5154.93875,N,00204.21852,W,0.419,,170620,,,A*62
$GPVTG,,T,,M,0.419,N,0.776,K,A*29
$GPGGA,175938.00,5154.93875,N,00204.21852,W,1,09,1.23,82.0,M,48.0,M,,*7F
$GPGSA,A,3,22,03,01,17,11,14,19,32,28,,,,2.10,1.23,1.71*04
$GPGSV,4,1,13,01,62,109,18,03,82,232,23,04,23,176,13,06,01,292,*78
$GPGSV,4,2,13,08,00,162,,11,30,141,30,14,32,053,20,17,45,297,30*7C
$GPGSV,4,3,13,19,27,313,23,22,72,075,29,28,15,255,13,31,09,083,*73
$GPGSV,4,4,13,32,15,039,21*47
$GPGLL,5154.93875,N,00204.21852,W,175938.00,A,A*75
$GPRMC,175939.00,A,5154.93863,N,00204.21880,W,0.714,,170620,,,A*65
$GPVTG,,T,,M,0.714,N,1.323,K,A*22
$GPGGA,175939.00,5154.93863,N,00204.21880,W,1,09,1.22,82.0,M,48.0,M,,*77
$GPGSA,A,3,22,03,01,17,11,14,19,32,28,,,,2.10,1.22,1.71*05
$GPGSV,4,1,13,01,62,109,18,03,82,232,23,04,23,176,13,06,01,292,*78
$GPGSV,4,2,13,08,00,162,,11,30,141,30,14,32,053,20,17,45,297,30*7C
$GPGSV,4,3,13,19,27,313,24,22,72,075,29,28,15,255,12,31,09,083,*75
$GPGSV,4,4,13,32,15,039,20*46
$GPGLL,5154.93863,N,00204.21880,W,175939.00,A,A*7C
$GPRMC,175940.00,A,5154.93859,N,00204.21885,W,0.432,,170620,,,A*60
$GPVTG,,T,,M,0.432,N,0.800,K,A*2E
$GPGGA,175940.00,5154.93859,N,00204.21885,W,1,09,1.22,82.0,M,48.0,M,,*75
$GPGSA,A,3,22,03,01,17,11,14,19,32,28,,,,2.10,1.22,1.71*05
$GPGSV,4,1,13,01,62,109,18,03,82,232,24,04,23,176,11,06,01,292,*7D
$GPGSV,4,2,13,08,00,162,,11,30,141,31,14,32,053,19,17,45,297,30*77
$GPGSV,4,3,13,19,27,313,24,22,72,075,28,28,15,255,11,31,09,083,*77
$GPGSV,4,4,13,32,15,039,20*46
$GPGLL,5154.93859,N,00204.21885,W,175940.00,A,A*7E
$GPRMC,175941.00,A,5154.93867,N,00204.21865,W,0.361,,170620,,,A*63
$GPVTG,,T,,M,0.361,N,0.669,K,A*2E
$GPGGA,175941.00,5154.93867,N,00204.21865,W,1,09,0.98,82.4,M,48.0,M,,*73
$GPGSA,A,3,22,03,01,17,11,14,19,32,28,,,,1.63,0.98,1.31*06
$GPGSV,4,1,13,01,62,109,18,03,82,232,24,04,23,176,09,06,01,292,*74
$GPGSV,4,2,13,08,00,162,,11,30,141,31,14,32,052,19,17,45,297,30*76
$GPGSV,4,3,13,19,27,313,24,22,72,075,29,28,15,255,11,31,09,083,*76
$GPGSV,4,4,13,32,15,039,20*46
$GPGLL,5154.93867,N,00204.21865,W,175941.00,A,A*7C
$GPRMC,175942.00,A,5154.93865,N,00204.21875,W,0.313,,170620,,,A*66
$GPVTG,,T,,M,0.313,N,0.580,K,A*2F
$GPGGA,175942.00,5154.93865,N,00204.21875,W,1,09,1.22,82.0,M,48.0,M,,*77
$GPGSA,A,3,22,03,01,17,11,14,19,32,28,,,,2.10,1.22,1.71*05
$GPGSV,4,1,13,01,62,109,19,03,82,232,24,04,23,176,,06,01,292,*7C
$GPGSV,4,2,13,08,00,162,,11,30,141,31,14,32,052,19,17,45,297,30*76
$GPGSV,4,3,13,19,27,313,25,22,72,075,29,28,15,255,11,31,09,083,*77
$GPGSV,4,4,13,32,15,039,21*47
$GPGLL,5154.93865,N,00204.21875,W,175942.00,A,A*7C
$GPRMC,175943.00,A,5154.93858,N,00204.21891,W,0.598,,170620,,,A*66
$GPVTG,,T,,M,0.598,N,1.107,K,A*20
$GPGGA,175943.00,5154.93858,N,00204.21891,W,1,09,1.22,82.0,M,48.0,M,,*72
$GPGSA,A,3,22,03,01,17,11,14,19,32,28,,,,2.10,1.22,1.71*05
$GPGSV,4,1,13,01,62,109,19,03,82,232,24,04,23,176,,06,01,292,*7C
$GPGSV,4,2,13,08,00,162,,11,30,141,31,14,32,052,20,17,45,297,30*7C
$GPGSV,4,3,13,19,27,313,25,22,72,075,29,28,15,255,11,31,09,083,*77
$GPGSV,4,4,13,32,15,039,21*47
$GPGLL,5154.93858,N,00204.21891,W,175943.00,A,A*79
$GPRMC,175944.00,A,5154.93876,N,00204.21896,W,0.489,,170620,,,A*6B
$GPVTG,,T,,M,0.489,N,0.905,K,A*2A
$GPGGA,175944.00,5154.93876,N,00204.21896,W,1,09,1.22,81.4,M,48.0,M,,*79
$GPGSA,A,3,22,03,01,17,11,14,19,32,28,,,,2.10,1.22,1.71*05
$GPGSV,4,1,13,01,62,109,20,03,82,232,24,04,23,176,,06,01,292,*76
$GPGSV,4,2,13,08,00,162,,11,30,141,31,14,32,052,20,17,46,296,30*7E
$GPGSV,4,3,13,19,27,313,25,22,72,075,29,28,15,255,11,31,09,083,*77
$GPGSV,4,4,13,32,15,039,21*47
$GPGLL,5154.93876,N,00204.21896,W,175944.00,A,A*75
$GPRMC,175945.00,A,5154.93898,N,00204.21866,W,0.445,,170620,,,A*65
$GPVTG,,T,,M,0.445,N,0.825,K,A*29
$GPGGA,175945.00,5154.93898,N,00204.21866,W,1,09,0.98,81.8,M,48.0,M,,*7B
$GPGSA,A,3,22,03,01,17,11,14,19,32,28,,,,1.63,0.98,1.31*06
$GPGSV,4,1,13,01,62,109,20,03,82,232,24,04,23,176,,06,01,292,*76
$GPGSV,4,2,13,08,00,162,,11,30,141,31,14,32,052,21,17,46,296,30*7F
$GPGSV,4,3,13,19,27,313,25,22,72,075,29,28,15,255,13,31,09,083,*75
$GPGSV,4,4,13,32,15,039,21*47
$GPGLL,5154.93898,N,00204.21866,W,175945.00,A,A*7B
$GPRMC,175946.00,A,5154.93910,N,00204.21876,W,0.434,,170620,,,A*60
$GPVTG,,T,,M,0.434,N,0.805,K,A*2D
$GPGGA,175946.00,5154.93910,N,00204.21876,W,1,08,1.22,80.8,M,48.0,M,,*78
$GPGSA,A,3,22,03,01,17,11,14,19,32,,,,,2.10,1.22,1.71*0F
$GPGSV,4,1,13,01,62,109,22,03,82,232,23,04,23,176,,06,01,292,*73
$GPGSV,4,2,13,08,00,162,,11,30,141,30,14,32,052,21,17,46,296,30*7E
$GPGSV,4,3,13,19,27,313,24,22,72,075,29,28,15,255,,31,09,083,*76
$GPGSV,4,4,13,32,15,039,20*46
$GPGLL,5154.93910,N,00204.21876,W,175946.00,A,A*78
$GPRMC,175947.00,A,5154.93925,N,00204.21872,W,0.758,,170620,,,A*6A
$GPVTG,,T,,M,0.758,N,1.404,K,A*28
$GPGGA,175947.00,5154.93925,N,00204.21872,W,1,08,1.22,80.6,M,48.0,M,,*75
$GPGSA,A,3,22,03,01,17,11,14,19,32,,,,,2.10,1.22,1.71*0F
$GPGSV,4,1,13,01,62,109,22,03,82,232,23,04,23,176,,06,01,292,*73
$GPGSV,4,2,13,08,00,162,,11,30,141,30,14,32,052,22,17,46,296,30*7D
$GPGSV,4,3,13,19,27,313,24,22,72,075,29,28,15,255,,31,09,083,*76
$GPGSV,4,4,13,32,15,039,20*46
$GPGLL,5154.93925,N,00204.21872,W,175947.00,A,A*7B
$GPRMC,175948.00,A,5154.93934,N,00204.21866,W,0.792,,170620,,,A*66
$GPVTG,,T,,M,0.792,N,1.466,K,A*2A
$GPGGA,175948.00,5154.93934,N,00204.21866,W,1,08,1.22,80.3,M,48.0,M,,*7A
$GPGSA,A,3,22,03,01,17,11,14,19,32,,,,,2.10,1.22,1.71*0F
$GPGSV,4,1,13,01,62,109,22,03,82,232,23,04,23,176,,06,01,292,*73
$GPGSV,4,2,13,08,00,162,,11,30,141,30,14,32,052,22,17,46,296,30*7D
$GPGSV,4,3,13,19,27,313,24,22,72,075,29,28,15,255,,31,09,083,*76
$GPGSV,4,4,13,32,15,039,21*47
$GPGLL,5154.93934,N,00204.21866,W,175948.00,A,A*71
$GPRMC,175949.00,A,5154.93951,N,00204.21848,W,1.027,,170620,,,A*60
$GPVTG,,T,,M,1.027,N,1.901,K,A*2E
$GPGGA,175949.00,5154.93951,N,00204.21848,W,1,09,1.22,79.9,M,48.0,M,,*79
$GPGSA,A,3,22,03,01,17,11,14,19,32,28,,,,2.10,1.22,1.71*05
$GPGSV,4,1,13,01,62,109,21,03,82,232,24,04,23,176,,06,01,292,*77
$GPGSV,4,2,13,08,00,162,,11,30,141,30,14,32,052,22,17,46,296,30*7D
$GPGSV,4,3,13,19,27,313,25,22,71,075,29,28,15,255,12,31,09,083,*77
$GPGSV,4,4,13,32,15,039,21*47
$GPGLL,5154.93951,N,00204.21848,W,175949.00,A,A*7F
$GPRMC,175950.00,A,5154.93969,N,00204.21838,W,0.940,,170620,,,A*6D
$GPVTG,,T,,M,0.940,N,1.741,K,A*2D
$GPGGA,175950.00,5154.93969,N,00204.21838,W,1,09,1.22,79.4,M,48.0,M,,*70
$GPGSA,A,3,22,03,01,17,11,14,19,32,28,,,,2.10,1.22,1.71*05
$GPGSV,4,1,13,01,62,109,21,03,82,232,25,04,23,176,,06,01,292,*76
$GPGSV,4,2,13,08,00,162,,11,30,141,31,14,32,052,22,17,46,296,30*7C
$GPGSV,4,3,13,19,27,313,25,22,71,075,28,28,15,255,10,31,09,083,*74
$GPGSV,4,4,13,32,15,039,21*47
$GPGLL,5154.93969,N,00204.21838,W,175950.00,A,A*7B
$GPRMC,175951.00,A,5154.93965,N,00204.21854,W,0.117,,170620,,,A*60
$GPVTG,,T,,M,0.117,N,0.217,K,A*20
$GPGGA,175951.00,5154.93965,N,00204.21854,W,1,08,1.22,79.0,M,48.0,M,,*72
$GPGSA,A,3,22,03,01,17,11,14,19,32,,,,,2.10,1.22,1.71*0F
$GPGSV,4,1,13,01,62,109,22,03,82,232,25,04,23,176,,06,01,292,*75
$GPGSV,4,2,13,08,00,162,,11,30,141,30,14,32,052,21,17,46,296,29*76
$GPGSV,4,3,13,19,27,313,25,22,71,075,28,28,15,255,09,31,09,083,*7C
$GPGSV,4,4,13,32,15,039,21*47
$GPGLL,5154.93965,N,00204.21854,W,175951.00,A,A*7C
$GPRMC,175952.00,A,5154.93958,N,00204.21869,W,0.060,,170620,,,A*62
$GPVTG,,T,,M,0.060,N,0.110,K,A*25
$GPGGA,175952.00,5154.93958,N,00204.21869,W,1,09,1.22,78.8,M,48.0,M,,*79
$GPGSA,A,3,22,03,01,17,11,14,19,32,28,,,,2.10,1.22,1.70*04
$GPGSV,4,1,13,01,62,109,21,03,82,232,25,04,23,176,,06,01,292,*76
$GPGSV,4,2,13,08,00,162,,11,30,141,30,14,32,052,21,17,46,296,30*7E
$GPGSV,4,3,13,19,27,313,25,22,71,075,29,28,15,255,10,31,09,083,*75
$GPGSV,4,4,13,32,15,039,21*47
$GPGLL,5154.93958,N,00204.21869,W,175952.00,A,A*7F
$GPRMC,175953.00,A,5154.93943,N,00204.21888,W,0.397,,170620,,,A*6D
$GPVTG,,T,,M,0.397,N,0.734,K,A*2E
$GPGGA,175953.00,5154.93943,N,00204.21888,W,1,09,1.22,78.9,M,48.0,M,,*7C
$GPGSA,A,3,22,03,01,17,11,14,19,32,28,,,,2.10,1.22,1.70*04
$GPGSV,4,1,13,01,62,109,20,03,82,232,25,04,23,176,,06,01,292,*77
$GPGSV,4,2,13,08,00,162,,11,30,141,31,14,32,052,21,17,46,296,29*77
$GPGSV,4,3,13,19,27,313,25,22,71,075,29,28,15,255,12,31,09,083,*77
$GPGSV,4,4,13,32,15,039,21*47
$GPGLL,5154.93943,N,00204.21888,W,175953.00,A,A*7B
$GPRMC,175954.00,A,5154.93948,N,00204.21864,W,0.302,,170620,,,A*6F
$GPVTG,,T,,M,0.302,N,0.560,K,A*21
$GPGGA,175954.00,5154.93948,N,00204.21864,W,1,09,0.98,79.7,M,48.0,M,,*7D
$GPGSA,A,3,22,03,01,17,11,14,19,32,28,,,,1.63,0.98,1.31*06
$GPGSV,4,1,13,01,62,109,19,03,82,232,25,04,23,176,,06,01,292,*7D
$GPGSV,4,2,13,08,00,162,,11,30,141,31,14,32,052,20,17,46,296,29*76
$GPGSV,4,3,13,19,27,313,25,22,71,075,29,28,15,255,11,31,09,083,*74
$GPGSV,4,4,13,32,15,039,21*47
$GPGLL,5154.93948,N,00204.21864,W,175954.00,A,A*75
$GPRMC,175955.00,A,5154.93949,N,00204.21849,W,0.223,,170620,,,A*62
$GPVTG,,T,,M,0.223,N,0.414,K,A*21
$GPGGA,175955.00,5154.93949,N,00204.21849,W,1,09,0.98,80.3,M,48.0,M,,*70
$GPGSA,A,3,22,03,01,17,11,14,19,32,28,,,,1.63,0.98,1.31*06
$GPGSV,4,1,13,01,62,109,19,03,82,232,25,04,23,176,,06,01,292,*7D
$GPGSV,4,2,13,08,00,162,,11,30,141,31,14,32,052,19,17,46,296,29*7C
$GPGSV,4,3,13,19,27,313,25,22,71,075,29,28,15,255,10,31,09,083,*75
$GPGSV,4,4,13,32,15,039,21*47
$GPGLL,5154.93949,N,00204.21849,W,175955.00,A,A*7A
$GPRMC,175956.00,A,5154.93943,N,00204.21852,W,0.303,,170620,,,A*62
$GPVTG,,T,,M,0.303,N,0.561,K,A*21
$GPGGA,175956.00,5154.93943,N,00204.21852,W,1,08,1.22,80.4,M,48.0,M,,*75
$GPGSA,A,3,22,03,01,17,11,14,19,32,,,,,2.10,1.22,1.70*0E
$GPGSV,4,1,13,01,62,109,19,03,82,232,25,04,23,176,,06,01,292,*7D
$GPGSV,4,2,13,08,00,162,,11,30,141,30,14,32,052,20,17,46,296,29*77
$GPGSV,4,3,13,19,27,313,25,22,71,075,29,28,15,255,,31,09,083,*74
$GPGSV,4,4,13,32,15,039,21*47
$GPGLL,5154.93943,N,00204.21852,W,175956.00,A,A*79
$GPRMC,175957.00,A,5154.93950,N,00204.21849,W,0.213,,170620,,,A*6B
$GPVTG,,T,,M,0.213,N,0.395,K,A*2C
$GPGGA,175957.00,5154.93950,N,00204.21849,W,1,08,1.22,80.2,M,48.0,M,,*7A
$GPGSA,A,3,22,03,01,17,11,14,19,32,,,,,2.10,1.22,1.70*0E
$GPGSV,4,1,13,01,62,109,18,03,82,232,26,04,23,176,,06,01,292,*7F
$GPGSV,4,2,13,08,00,162,,11,30,141,30,14,32,052,19,17,46,296,29*7D
$GPGSV,4,3,13,19,27,313,25,22,71,075,29,28,15,255,,31,09,083,*74
$GPGSV,4,4,13,32,15,039,20*46
$GPGLL,5154.93950,N,00204.21849,W,175957.00,A,A*70
$GPRMC,175958.00,A,5154.93947,N,00204.21867,W,0.186,,170620,,,A*61
$GPVTG,,T,,M,0.186,N,0.345,K,A*2E
$GPGGA,175958.00,5154.93947,N,00204.21867,W,1,09,1.22,80.1,M,48.0,M,,*7D
$GPGSA,A,3,22,03,01,17,11,14,19,32,28,,,,2.10,1.22,1.70*04
$GPGSV,4,1,13,01,62,109,18,03,82,232,26,04,23,176,,06,01,292,*7F
$GPGSV,4,2,13,08,00,162,,11,30,141,30,14,32,052,19,17,46,296,29*7D
$GPGSV,4,3,13,19,27,313,25,22,71,075,29,28,15,255,14,31,09,083,*71
$GPGSV,4,4,13,32,15,039,20*46
$GPGLL,5154.93947,N,00204.21867,W,175958.00,A,A*75
$GPRMC,175959.00,A,5154.93956,N,00204.21851,W,0.453,,170620,,,A*68
$GPVTG,,T,,M,0.453,N,0.839,K,A*23
$GPGGA,175959.00,5154.93956,N,00204.21851,W,1,08,1.22,80.1,M,48.0,M,,*78
$GPGSA,A,3,22,03,01,17,11,14,19,32,,,,,2.10,1.22,1.70*0E
$GPGSV,4,1,13,01,62,109,18,03,82,232,26,04,23,176,,06,01,292,*7F
$GPGSV,4,2,13,08,00,162,,11,30,141,31,14,32,052,20,17,46,296,29*76
$GPGSV,4,3,13,19,27,313,25,22,71,075,29,28,15,255,13,31,09,083,*76
$GPGSV,4,4,13,32,15,038,19*4D
$GPGLL,5154.93956,N,00204.21851,W,175959.00,A,A*71
$GPRMC,180000.00,A,5154.93937,N,00204.21890,W,0.867,,170620,,,A*66
$GPVTG,,T,,M,0.867,N,1.607,K,A*2A
$GPGGA,180000.00,5154.93937,N,00204.21890,W,1,08,1.22,80.1,M,48.0,M,,*7D
$GPGSA,A,3,22,03,01,17,11,14,19,32,,,,,2.10,1.22,1.70*0E
$GPGSV,4,1,13,01,62,109,18,03,82,232,26,04,23,176,,06,01,292,18*76
$GPGSV,4,2,13,08,00,162,,11,30,141,31,14,32,052,20,17,46,296,29*76
$GPGSV,4,3,13,19,27,313,25,22,71,075,29,28,15,255,11,31,09,083,*74
$GPGSV,4,4,13,32,15,038,19*4D
$GPGLL,5154.93937,N,00204.21890,W,180000.00,A,A*74
$GPRMC,180001.00,A,5154.93960,N,00204.21874,W,0.594,,170620,,,A*6E
$GPVTG,,T,,M,0.594,N,1.099,K,A*2A
$GPGGA,180001.00,5154.93960,N,00204.21874,W,1,08,1.22,79.6,M,48.0,M,,*75
$GPGSA,A,3,22,03,01,17,11,14,19,32,,,,,2.10,1.22,1.70*0E
$GPGSV,4,1,13,01,62,109,19,03,82,232,26,04,23,176,,06,01,292,18*77
$GPGSV,4,2,13,08,00,162,,11,30,141,30,14,32,052,20,17,46,296,29*77
$GPGSV,4,3,13,19,27,313,25,22,71,075,29,28,15,255,09,31,09,083,*7D
$GPGSV,4,4,13,32,15,038,19*4D
$GPGLL,5154.93960,N,00204.21874,W,180001.00,A,A*7D
$GPRMC,180002.00,A,5154.93992,N,00204.21835,W,1.327,,170620,,,A*6A
$GPVTG,,T,,M,1.327,N,2.457,K,A*20
$GPGGA,180002.00,5154.93992,N,00204.21835,W,1,08,1.22,79.5,M,48.0,M,,*7D
$GPGSA,A,3,22,03,01,17,11,14,19,32,,,,,2.10,1.22,1.70*0E
$GPGSV,4,1,13,01,62,109,19,03,82,232,26,04,23,176,,06,01,292,17*78
$GPGSV,4,2,13,08,00,162,,11,30,141,30,14,32,052,20,17,46,296,29*77
$GPGSV,4,3,13,19,27,313,25,22,71,075,29,28,15,255,09,31,09,083,*7D
$GPGSV,4,4,13,32,15,038,19*4D
$GPGLL,5154.93992,N,00204.21835,W,180002.00,A,A*76
$GPRMC,180003.00,A,5154.94025,N,00204.21791,W,1.582,8.11,170620,,,A*77
$GPVTG,8.11,T,,M,1.582,N,2.931,K,A*32
$GPGGA,180003.00,5154.94025,N,00204.21791,W,1,08,1.22,79.2,M,48.0,M,,*78
$GPGSA,A,3,22,03,01,17,11,14,19,32,,,,,2.10,1.22,1.70*0E
$GPGSV,4,1,13,01,62,109,20,03,82,232,26,04,23,176,,06,01,292,14*71
$GPGSV,4,2,13,08,00,162,,11,30,141,29,14,32,052,20,17,46,296,29*7F
$GPGSV,4,3,13,19,27,313,25,22,71,075,28,28,15,255,10,31,09,083,*74
$GPGSV,4,4,13,32,15,038,19*4D
$GPGLL,5154.94025,N,00204.21791,W,180003.00,A,A*74
$GPRMC,180004.00,A,5154.94043,N,00204.21765,W,0.959,,170620,,,A*66
$GPVTG,,T,,M,0.959,N,1.777,K,A*20
$GPGGA,180004.00,5154.94043,N,00204.21765,W,1,09,1.22,79.1,M,48.0,M,,*76
$GPGSA,A,3,22,03,01,17,11,14,19,32,28,,,,2.10,1.22,1.70*04
$GPGSV,4,1,13,01,62,109,21,03,82,232,26,04,23,176,,06,01,292,13*77
$GPGSV,4,2,13,08,00,162,,11,30,141,29,14,32,052,20,17,46,296,29*7F
$GPGSV,4,3,13,19,27,313,25,22,71,075,29,28,15,255,12,31,09,083,*77
$GPGSV,4,4,13,32,15,038,19*4D
$GPGLL,5154.94043,N,00204.21765,W,180004.00,A,A*78
$GPRMC,180005.00,A,5154.94056,N,00204.21755,W,0.568,,170620,,,A*6E
$GPVTG,,T,,M,0.568,N,1.052,K,A*2E
$GPGGA,180005.00,5154.94056,N,00204.21755,W,1,09,1.22,79.0,M,48.0,M,,*71
$GPGSA,A,3,22,03,01,17,11,14,19,32,28,,,,2.10,1.22,1.70*04
$GPGSV,4,1,13,01,62,109,20,03,82,232,25,04,23,176,,06,01,292,13*75
$GPGSV,4,2,13,08,00,162,,11,30,141,29,14,32,052,20,17,46,296,29*7F
$GPGSV,4,3,13,19,27,313,25,22,71,075,28,28,15,255,12,31,09,083,*76
$GPGSV,4,4,13,32,15,038,19*4D
$GPGLL,5154.94056,N,00204.21755,W,180005.00,A,A*7E
$GPRMC,180006.00,A,5154.94059,N,00204.21756,W,0.417,,170620,,,A*68
$GPVTG,,T,,M,0.417,N,0.773,K,A*22
$GPGGA,180006.00,5154.94059,N,00204.21756,W,1,09,1.22,78.7,M,48.0,M,,*78
$GPGSA,A,3,22,03,01,17,11,14,19,32,28,,,,2.10,1.22,1.70*04
$GPGSV,4,1,13,01,62,109,19,03,82,232,25,04,23,176,,06,01,292,13*7F
$GPGSV,4,2,13,08,00,162,,11,30,141,29,14,32,052,19,17,46,296,28*74
$GPGSV,4,3,13,19,27,313,25,22,71,075,28,28,15,255,11,31,09,083,*75
$GPGSV,4,4,13,32,15,038,17*43
$GPGLL,5154.94059,N,00204.21756,W,180006.00,A,A*71
$GPRMC,180007.00,A,5154.94072,N,00204.21740,W,0.672,,170620,,,A*66
$GPVTG,,T,,M,0.672,N,1.244,K,A*23
$GPGGA,180007.00,5154.94072,N,00204.21740,W,1,08,1.22,78.5,M,48.0,M,,*74
$GPGSA,A,3,22,03,01,17,11,14,19,32,,,,,2.10,1.22,1.70*0E
$GPGSV,4,1,13,01,62,109,20,03,82,232,25,04,23,176,,06,01,292,13*75
$GPGSV,4,2,13,08,00,162,,11,30,141,30,14,32,052,18,17,46,296,28*7D
$GPGSV,4,3,13,19,27,313,25,22,71,075,28,28,15,255,09,31,09,083,*7C
$GPGSV,4,4,13,32,15,038,17*43
$GPGLL,5154.94072,N,00204.21740,W,180007.00,A,A*7E
$GPRMC,180008.00,A,5154.94082,N,00204.21724,W,0.754,,170620,,,A*61
$GPVTG,,T,,M,0.754,N,1.396,K,A*28
$GPGGA,180008.00,5154.94082,N,00204.21724,W,1,08,1.22,78.0,M,48.0,M,,*73
$GPGSA,A,3,22,03,01,17,11,14,19,32,,,,,2.09,1.22,1.70*06
$GPGSV,4,1,13,01,62,109,20,03,82,232,25,04,23,176,,06,01,292,12*74
$GPGSV,4,2,13,08,00,162,,11,30,141,30,14,32,052,19,17,46,296,28*7C
$GPGSV,4,3,13,19,27,313,25,22,71,075,28,28,15,255,09,31,09,083,*7C
$GPGSV,4,4,13,32,15,038,17*43
$GPGLL,5154.94082,N,00204.21724,W,180008.00,A,A*7C
$GPRMC,180009.00,A,5154.94086,N,00204.21713,W,0.402,,170620,,,A*60
$GPVTG,,T,,M,0.402,N,0.744,K,A*22
$GPGGA,180009.00,5154.94086,N,00204.21713,W,1,08,1.22,78.0,M,48.0,M,,*72
$GPGSA,A,3,22,03,01,17,11,14,19,32,,,,,2.09,1.22,1.70*06
$GPGSV,4,1,13,01,62,109,20,03,82,232,25,04,23,176,,06,01,292,13*75
$GPGSV,4,2,13,08,00,162,,11,30,141,29,14,32,052,21,17,46,296,28*7F
$GPGSV,4,3,13,19,27,313,25,22,71,075,28,28,15,255,09,31,09,083,*7C
$GPGSV,4,4,13,32,15,038,16*42
$GPGLL,5154.94086,N,00204.21713,W,180009.00,A,A*7D
$GPRMC,180010.00,A,5154.94093,N,00204.21701,W,0.394,,170620,,,A*67
$GPVTG,,T,,M,0.394,N,0.730,K,A*29
$GPGGA,180010.00,5154.94093,N,00204.21701,W,1,08,1.22,78.2,M,48.0,M,,*7F
$GPGSA,A,3,22,03,01,17,11,14,19,32,,,,,2.09,1.22,1.70*06
$GPGSV,4,1,13,01,62,109,20,03,82,232,25,04,23,176,,06,01,292,13*75
$GPGSV,4,2,13,08,00,162,,11,30,141,29,14,32,052,22,17,46,296,28*7C
$GPGSV,4,3,13,19,27,313,25,22,71,075,28,28,15,255,09,31,09,083,*7C
$GPGSV,4,4,13,32,15,038,16*42
$GPGLL,5154.94093,N,00204.21701,W,180010.00,A,A*72
$GPRMC,180011.00,A,5154.94111,N,00204.21672,W,0.922,,170620,,,A*6F
$GPVTG,,T,,M,0.922,N,1.707,K,A*2B
$GPGGA,180011.00,5154.94111,N,00204.21672,W,1,08,1.22,78.2,M,48.0,M,,*70
$GPGSA,A,3,22,03,01,17,11,14,19,32,,,,,2.09,1.22,1.70*06
$GPGSV,4,1,13,01,62,109,21,03,82,232,25,04,23,176,,06,01,292,11*76
$GPGSV,4,2,13,08,00,162,,11,30,141,29,14,32,052,22,17,46,296,29*7D
$GPGSV,4,3,13,19,27,313,25,22,71,075,28,28,15,255,09,31,09,083,*7C
$GPGSV,4,4,13,32,15,038,17*43
$GPGLL,5154.94111,N,00204.21672,W,180011.00,A,A*7D
$GPRMC,180012.00,A,5154.94131,N,00204.21639,W,1.281,,170620,,,A*62
$GPVTG,,T,,M,1.281,N,2.373,K,A*2C
$GPGGA,180012.00,5154.94131,N,00204.21639,W,1,09,1.22,78.0,M,48.0,M,,*7D
$GPGSA,A,3,22,03,01,17,11,14,19,32,28,,,,2.09,1.22,1.70*0C
$GPGSV,4,1,13,01,62,109,22,03,82,232,25,04,23,176,17,06,01,292,12*70
$GPGSV,4,2,13,08,00,162,,11,30,141,29,14,32,052,21,17,46,296,29*7E
$GPGSV,4,3,13,19,27,313,26,22,71,075,28,28,15,255,11,31,09,083,*76
$GPGSV,4,4,13,32,15,038,18*4C
$GPGLL,5154.94131,N,00204.21639,W,180012.00,A,A*73
$GPRMC,180013.00,A,5154.94122,N,00204.21648,W,0.305,,170620,,,A*6B
$GPVTG,,T,,M,0.305,N,0.565,K,A*23
$GPGGA,180013.00,5154.94122,N,00204.21648,W,1,09,1.22,77.7,M,48.0,M,,*70
$GPGSA,A,3,22,03,01,17,11,14,19,32,28,,,,2.09,1.22,1.70*0C
$GPGSV,4,1,13,01,62,109,21,03,82,232,25,04,23,176,17,06,01,292,*70
$GPGSV,4,2,13,08,00,162,,11,30,141,30,14,32,052,20,17,46,296,29*77
$GPGSV,4,3,13,19,27,313,25,22,71,075,28,28,15,255,11,31,09,083,*75
$GPGSV,4,4,13,32,15,038,18*4C
$GPGLL,5154.94122,N,00204.21648,W,180013.00,A,A*76
$GPRMC,180014.00,A,5154.94118,N,00204.21670,W,0.135,,170620,,,A*6F
$GPVTG,,T,,M,0.135,N,0.249,K,A*2B
$GPGGA,180014.00,5154.94118,N,00204.21670,W,1,09,1.22,77.1,M,48.0,M,,*73
$GPGSA,A,3,22,03,01,17,11,14,19,32,28,,,,2.09,1.22,1.70*0C
$GPGSV,4,1,13,01,62,109,21,03,82,232,26,04,23,176,17,06,01,292,*73
$GPGSV,4,2,13,08,00,162,,11,30,141,30,14,32,052,19,17,46,296,29*7D
$GPGSV,4,3,13,19,27,313,25,22,71,075,28,28,15,255,07,31,09,083,*72
$GPGSV,4,4,13,32,15,038,18*4C
$GPGLL,5154.94118,N,00204.21670,W,180014.00,A,A*73
$GPRMC,180015.00,A,5154.94090,N,00204.21706,W,0.843,,170620,,,A*67
$GPVTG,,T,,M,0.843,N,1.562,K,A*2C
$GPGGA,180015.00,5154.94090,N,00204.21706,W,1,09,1.22,77.7,M,48.0,M,,*75
$GPGSA,A,3,22,03,01,17,11,14,19,32,28,,,,2.09,1.22,1.70*0C
$GPGSV,4,1,13,01,62,109,22,03,82,232,26,04,23,176,17,06,01,292,*70
$GPGSV,4,2,13,08,00,162,,11,30,141,30,14,32,052,20,17,46,296,29*77
$GPGSV,4,3,13,19,27,313,25,22,71,075,28,28,15,255,07,31,09,083,*72
$GPGSV,4,4,13,32,15,038,18*4C
$GPGLL,5154.94090,N,00204.21706,W,180015.00,A,A*73
$GPRMC,180016.00,A,5154.94072,N,00204.21736,W,0.116,,170620,,,A*62
$GPVTG,,T,,M,0.116,N,0.215,K,A*23
$GPGGA,180016.00,5154.94072,N,00204.21736,W,1,09,1.22,77.6,M,48.0,M,,*78
$GPGSA,A,3,22,03,01,17,11,14,19,32,28,,,,2.09,1.22,1.70*0C
$GPGSV,4,1,13,01,62,109,22,03,82,232,26,04,23,176,17,06,01,292,*70
$GPGSV,4,2,13,08,00,162,,11,30,141,30,14,32,052,20,17,46,296,29*77
$GPGSV,4,3,13,19,27,313,25,22,71,075,28,28,15,255,07,31,09,083,*72
$GPGSV,4,4,13,32,15,038,17*43
$GPGLL,5154.94072,N,00204.21736,W,180016.00,A,A*7F
$GPRMC,180017.00,A,5154.94056,N,00204.21757,W,0.144,,170620,,,A*65
$GPVTG,,T,,M,0.144,N,0.267,K,A*21
$GPGGA,180017.00,5154.94056,N,00204.21757,W,1,08,1.22,77.6,M,48.0,M,,*79
$GPGSA,A,3,22,03,01,17,11,14,19,32,,,,,2.09,1.22,1.70*06
$GPGSV,4,1,13,01,62,109,22,03,82,232,26,04,23,176,17,06,01,292,*70
$GPGSV,4,2,13,08,00,162,,11,30,141,29,14,32,052,20,17,46,296,28*7E
$GPGSV,4,3,13,19,27,313,25,22,71,075,28,28,15,255,,31,09,083,*75
$GPGSV,4,4,13,32,15,038,17*43
$GPGLL,5154.94056,N,00204.21757,W,180017.00,A,A*7F
$GPRMC,180018.00,A,5154.94054,N,00204.21767,W,0.100,,170620,,,A*6B
$GPVTG,,T,,M,0.100,N,0.185,K,A*2E
$GPGGA,180018.00,5154.94054,N,00204.21767,W,1,09,1.22,77.6,M,48.0,M,,*76
$GPGSA,A,3,22,03,01,17,11,14,19,32,28,,,,2.09,1.22,1.70*0C
$GPGSV,4,1,13,01,62,109,23,03,82,232,26,04,23,176,17,06,01,292,*71
$GPGSV,4,2,13,08,00,162,,11,30,141,29,14,32,052,21,17,46,296,28*7F
$GPGSV,4,3,13,19,27,313,25,22,71,075,28,28,15,255,17,31,09,083,*73
$GPGSV,4,4,13,32,15,038,17*43
$GPGLL,5154.94054,N,00204.21767,W,180018.00,A,A*71
$GPRMC,180019.00,A,5154.94057,N,00204.21758,W,0.537,,170620,,,A*65
$GPVTG,,T,,M,0.537,N,0.994,K,A*26
$GPGGA,180019.00,5154.94057,N,00204.21758,W,1,08,1.22,77.7,M,48.0,M,,*78
$GPGSA,A,3,22,03,01,17,11,14,19,32,,,,,2.09,1.22,1.70*06
$GPGSV,4,1,13,01,62,109,23,03,82,232,27,04,23,176,18,06,01,292,*7F
$GPGSV,4,2,13,08,00,162,,11,30,141,29,14,32,052,22,17,46,296,28*7C
$GPGSV,4,3,13,19,27,313,25,22,71,075,27,28,15,255,16,31,09,083,*7D
$GPGSV,4,4,13,32,15,038,17*43
$GPGLL,5154.94057,N,00204.21758,W,180019.00,A,A*7F
$GPRMC,180020.00,A,5154.94063,N,00204.21744,W,0.424,,170620,,,A*66
$GPVTG,,T,,M,0.424,N,0.785,K,A*2B
$GPGGA,180020.00,5154.94063,N,00204.21744,W,1,09,1.22,77.9,M,48.0,M,,*77
$GPGSA,A,3,22,03,01,17,11,14,19,32,28,,,,2.09,1.22,1.70*0C
$GPGSV,4,1,13,01,62,109,24,03,82,232,26,04,23,176,19,06,01,292,*78
$GPGSV,4,2,13,08,00,162,,11,30,141,27,14,32,052,22,17,46,296,28*72
$GPGSV,4,3,13,19,27,313,24,22,71,075,26,28,15,255,14,31,09,083,*7F
$GPGSV,4,4,13,32,15,038,16*42
$GPGLL,5154.94063,N,00204.21744,W,180020.00,A,A*7F
$GPRMC,180021.00,A,5154.94091,N,00204.21720,W,1.254,,170620,,,A*68
$GPVTG,,T,,M,1.254,N,2.323,K,A*21
$GPGGA,180021.00,5154.94091,N,00204.21720,W,1,09,1.22,77.4,M,48.0,M,,*74
$GPGSA,A,3,22,03,01,17,11,14,19,32,28,,,,2.09,1.22,1.70*0C
$GPGSV,4,1,13,01,62,109,25,03,82,232,27,04,23,176,19,06,01,292,*78
$GPGSV,4,2,13,08,00,162,,11,30,141,28,14,32,052,23,17,46,296,28*7C
$GPGSV,4,3,13,19,27,313,24,22,71,075,26,28,15,255,15,31,09,083,*7E
$GPGSV,4,4,13,32,15,038,15*41
$GPGLL,5154.94091,N,00204.21720,W,180021.00,A,A*71
$GPRMC,180022.00,A,5154.94122,N,00204.21673,W,0.897,,170620,,,A*61
$GPVTG,,T,,M,0.897,N,1.661,K,A*25
$GPGGA,180022.00,5154.94122,N,00204.21673,W,1,09,0.97,77.0,M,48.0,M,,*72
$GPGSA,A,3,22,03,01,17,11,14,19,32,28,,,,1.63,0.97,1.30*08
$GPGSV,4,1,13,01,62,109,25,03,82,232,27,04,23,176,18,06,01,292,*79
$GPGSV,4,2,13,08,00,162,,11,30,141,28,14,32,052,22,17,46,296,28*7D
$GPGSV,4,3,13,19,27,313,24,22,71,075,26,28,15,255,15,31,09,083,*7E
$GPGSV,4,4,13,32,15,038,16*42
$GPGLL,5154.94122,N,00204.21673,W,180022.00,A,A*7C
$GPRMC,180023.00,A,5154.94157,N,00204.21626,W,0.996,,170620,,,A*62
$GPVTG,,T,,M,0.996,N,1.844,K,A*2C
$GPGGA,180023.00,5154.94157,N,00204.21626,W,1,09,0.97,77.6,M,48.0,M,,*77
$GPGSA,A,3,22,03,01,17,11,14,19,32,28,,,,1.63,0.97,1.30*08
$GPGSV,4,1,13,01,62,109,25,03,82,232,27,04,23,176,17,06,01,292,*76
$GPGSV,4,2,13,08,00,162,,11,30,141,28,14,32,052,23,17,46,296,28*7C
$GPGSV,4,3,13,19,27,313,24,22,71,075,26,28,15,255,16,31,09,083,*7D
$GPGSV,4,4,13,32,15,038,15*41
$GPGLL,5154.94157,N,00204.21626,W,180023.00,A,A*7F
$GPRMC,180024.00,A